% program   : RTKPOST ver.2.4.3 b33
% inp file  : C:\Users\jacqu\Desktop\Procesamiento PPK - PH4\PROCESAMIENTO_PPK-PH4\MATERIAL_PPK\100_0005\100_0005_Rinex.obs
% inp file  : C:\Users\jacqu\Desktop\Procesamiento PPK - PH4\PROCESAMIENTO_PPK-PH4\MATERIAL_PPK\BASE\PC01\SG01009n28\SG01009n28.20O
% inp file  : C:\Users\jacqu\Desktop\Procesamiento PPK - PH4\PROCESAMIENTO_PPK-PH4\MATERIAL_PPK\BASE\PC01\SG01009n28\SG01009n28.20N
% inp file  : C:\Users\jacqu\Desktop\Procesamiento PPK - PH4\PROCESAMIENTO_PPK-PH4\MATERIAL_PPK\BASE\PC01\SG01009n28\SG01009n28.20G
% obs start : 2020/01/09 20:28:34.6 GPST (week2087 419314.6s)
% obs end   : 2020/01/09 20:34:04.4 GPST (week2087 419644.4s)
% pos mode  : kinematic
% freqs     : L1
% solution  : forward
% elev mask : 15.0 deg
% dynamics  : off
% tidecorr  : off
% ionos opt : broadcast
% tropo opt : saastamoinen
% ephemeris : broadcast
% amb res   : continuous
% val thres : 3.0
% antenna1  :                       ( 0.0000  0.0000  0.0000)
% antenna2  :                       ( 0.0000  0.0000  0.0000)
% ref pos   :-12.725475796  -76.624002854    69.5190
%
% (lat/lon/height=WGS84/ellipsoidal,Q=1:fix,2:float,3:sbas,4:dgps,5:single,6:ppp,ns=# of satellites)
%  GPST           latitude(deg) longitude(deg)  height(m)   Q  ns   sdn(m)   sde(m)   sdu(m)  sdne(m)  sdeu(m)  sdun(m) age(s)  ratio
2087 419314.8000  -12.723991295  -76.627349674   207.3996   2   9   0.6321   0.5637   1.6213  -0.1011  -0.6370   0.3382   0.80    2.4
2087 419315.0000  -12.723989754  -76.627349849   207.5736   2   9   0.4501   0.4005   1.1529  -0.0721  -0.4520   0.2440   0.00    3.0
2087 419315.2000  -12.723984551  -76.627347375   207.7568   1   9   0.0064   0.0056   0.0164  -0.0009  -0.0065   0.0035   0.20    3.8
2087 419315.4000  -12.723984367  -76.627346992   207.7605   1   9   0.0065   0.0057   0.0165  -0.0010  -0.0064   0.0035   0.40    4.8
2087 419315.6000  -12.723984230  -76.627346627   207.7548   1   9   0.0065   0.0058   0.0165  -0.0011  -0.0065   0.0035   0.60    5.1
2087 419315.8000  -12.723984091  -76.627346317   207.7371   1   9   0.0065   0.0059   0.0166  -0.0009  -0.0065   0.0034   0.80    5.4
2087 419316.0000  -12.723983968  -76.627346045   207.7242   1   9   0.0064   0.0058   0.0164  -0.0016  -0.0065   0.0035   0.00    5.9
2087 419316.2000  -12.723983928  -76.627345830   207.7115   1   9   0.0064   0.0058   0.0164  -0.0013  -0.0064   0.0035   0.20    6.2
2087 419316.4000  -12.723983906  -76.627345629   207.6952   1   9   0.0065   0.0058   0.0165  -0.0012  -0.0064   0.0035   0.40    6.9
2087 419316.6000  -12.723983924  -76.627345445   207.6769   1   9   0.0064   0.0056   0.0165  -0.0010  -0.0065   0.0035   0.60    7.4
2087 419316.8000  -12.723983960  -76.627345320   207.6608   1   9   0.0065   0.0057   0.0166  -0.0008  -0.0065   0.0036   0.80    7.7
2087 419317.0000  -12.723983976  -76.627345190   207.6409   1   9   0.0065   0.0060   0.0164  -0.0014  -0.0063   0.0036   0.00    7.9
2087 419317.2000  -12.723984018  -76.627345132   207.6207   1   9   0.0065   0.0058   0.0164  -0.0013  -0.0064   0.0035   0.20    7.6
2087 419317.4000  -12.723984080  -76.627345103   207.5988   1   9   0.0064   0.0057   0.0165  -0.0012  -0.0064   0.0035   0.40    7.7
2087 419317.6000  -12.723984127  -76.627345117   207.5821   1   9   0.0065   0.0057   0.0165  -0.0011  -0.0065   0.0035   0.60    7.6
2087 419317.8000  -12.723984157  -76.627345164   207.5647   1   9   0.0064   0.0057   0.0166  -0.0015  -0.0065   0.0034   0.80    7.7
2087 419318.0000  -12.723984221  -76.627345202   207.5473   1   9   0.0063   0.0056   0.0164  -0.0013  -0.0065   0.0035   0.00    7.9
2087 419318.2000  -12.723984242  -76.627345260   207.5342   1   9   0.0064   0.0058   0.0164  -0.0010  -0.0064   0.0035   0.20    7.8
2087 419318.4000  -12.723984267  -76.627345297   207.5258   1   9   0.0064   0.0057   0.0165  -0.0012  -0.0064   0.0035   0.40    7.7
2087 419318.6000  -12.723984278  -76.627345319   207.5062   1   9   0.0065   0.0058   0.0165  -0.0015  -0.0064   0.0035   0.60    7.6
2087 419318.8000  -12.723984266  -76.627345347   207.4890   1   9   0.0065   0.0057   0.0166   0.0007  -0.0065   0.0036   0.80    7.6
2087 419319.0000  -12.723984223  -76.627345367   207.4726   1   9   0.0064   0.0058   0.0164  -0.0009  -0.0064   0.0035   0.00    7.6
2087 419319.2000  -12.723984222  -76.627345439   207.4640   1   9   0.0062   0.0055   0.0164   0.0002  -0.0065   0.0035   0.20    7.6
2087 419319.4000  -12.723984194  -76.627345501   207.4524   1   9   0.0065   0.0055   0.0165  -0.0009  -0.0065   0.0036   0.40    7.6
2087 419319.6000  -12.723984194  -76.627345583   207.4433   1   9   0.0065   0.0058   0.0165  -0.0015  -0.0064   0.0034   0.60    7.6
2087 419319.8000  -12.723984186  -76.627345685   207.4407   1   9   0.0065   0.0059   0.0166  -0.0017  -0.0065   0.0035   0.80    7.4
2087 419320.0000  -12.723984133  -76.627345730   207.4379   1   9   0.0064   0.0058   0.0164  -0.0012  -0.0063   0.0036   0.00    7.2
2087 419320.2000  -12.723984145  -76.627345791   207.4255   1   9   0.0064   0.0057   0.0164   0.0004  -0.0064   0.0035   0.20    7.2
2087 419320.4000  -12.723984176  -76.627345818   207.4200   1   9   0.0064   0.0057   0.0164  -0.0015  -0.0065   0.0035   0.40    7.1
2087 419320.6000  -12.723984181  -76.627345853   207.4150   1   9   0.0065   0.0059   0.0165  -0.0015  -0.0064   0.0034   0.60    7.1
2087 419320.8000  -12.723984227  -76.627345872   207.4063   1   9   0.0064   0.0057   0.0166  -0.0010  -0.0065   0.0035   0.80    7.0
2087 419321.0000  -12.723984278  -76.627345869   207.4090   1   9   0.0064   0.0057   0.0164  -0.0008  -0.0064   0.0036   0.00    6.9
2087 419321.2000  -12.723984299  -76.627345906   207.4110   1   9   0.0065   0.0057   0.0164  -0.0015  -0.0064   0.0035   0.20    6.8
2087 419321.4000  -12.723984303  -76.627345936   207.4149   1   9   0.0065   0.0058   0.0165  -0.0015  -0.0064   0.0036   0.40    6.8
2087 419321.6000  -12.723984313  -76.627346000   207.4185   1   9   0.0064   0.0056   0.0165   0.0003  -0.0065   0.0036   0.60    6.8
2087 419321.8000  -12.723984304  -76.627346024   207.4245   1   9   0.0065   0.0059   0.0166   0.0008  -0.0065   0.0035   0.80    6.7
2087 419322.0000  -12.723984268  -76.627346089   207.4252   1   9   0.0065   0.0057   0.0164  -0.0013  -0.0065   0.0035   0.00    6.8
2087 419322.2000  -12.723983870  -76.627346026   207.4022   1   9   0.0064   0.0057   0.0164  -0.0011  -0.0065   0.0035   0.20    6.9
2087 419322.4000  -12.723982922  -76.627345619   207.3535   1   9   0.0064   0.0056   0.0165  -0.0007  -0.0064   0.0035   0.40    6.9
2087 419322.6000  -12.723981131  -76.627344560   207.2891   1   9   0.0065   0.0057   0.0165  -0.0005  -0.0065   0.0035   0.60    7.0
2087 419322.8000  -12.723978395  -76.627342687   207.1922   1   9   0.0065   0.0056   0.0166  -0.0012  -0.0066   0.0034   0.80    7.1
2087 419323.0000  -12.723974673  -76.627339926   207.0679   1   9   0.0064   0.0057   0.0164  -0.0015  -0.0064   0.0035   0.00    7.2
2087 419323.2000  -12.723969978  -76.627336307   206.9204   1   9   0.0065   0.0058   0.0164  -0.0020  -0.0065   0.0034   0.20    7.3
2087 419323.4000  -12.723964444  -76.627331850   206.7588   1   9   0.0064   0.0059   0.0165  -0.0010  -0.0064   0.0035   0.40    7.3
2087 419323.6000  -12.723958057  -76.627326499   206.5770   1   9   0.0064   0.0059   0.0165  -0.0008  -0.0065   0.0035   0.60    7.5
2087 419323.8000  -12.723950936  -76.627320311   206.3639   1   9   0.0065   0.0056   0.0166  -0.0005  -0.0065   0.0035   0.80    7.6
2087 419324.0000  -12.723943053  -76.627313259   206.1312   1   9   0.0064   0.0056   0.0164  -0.0017  -0.0064   0.0035   0.00    7.6
2087 419324.2000  -12.723934728  -76.627305540   205.8899   1   9   0.0064   0.0058   0.0164  -0.0002  -0.0064   0.0035   0.20    7.8
2087 419324.4000  -12.723926191  -76.627297455   205.6332   1   9   0.0064   0.0057   0.0165  -0.0006  -0.0064   0.0035   0.40    7.7
2087 419324.6000  -12.723917681  -76.627289304   205.3852   1   9   0.0065   0.0060   0.0165  -0.0013  -0.0064   0.0035   0.60    7.7
2087 419324.8000  -12.723909331  -76.627281173   205.1316   1   9   0.0065   0.0058   0.0166  -0.0018  -0.0065   0.0035   0.80    7.8
2087 419325.0000  -12.723901172  -76.627273203   204.8687   1   9   0.0065   0.0056   0.0164  -0.0006  -0.0064   0.0035   0.00    7.8
2087 419325.2000  -12.723893167  -76.627265431   204.6301   1   9   0.0064   0.0058   0.0164  -0.0015  -0.0064   0.0035   0.20    7.8
2087 419325.4000  -12.723885330  -76.627257842   204.3834   1   9   0.0064   0.0057   0.0165  -0.0013  -0.0064   0.0035   0.40    7.7
2087 419325.6000  -12.723877580  -76.627250451   204.1494   1   9   0.0065   0.0057   0.0165  -0.0005  -0.0064   0.0035   0.60    7.8
2087 419325.8000  -12.723869935  -76.627243253   203.9200   1   9   0.0065   0.0057   0.0166  -0.0016  -0.0065   0.0035   0.80    7.8
2087 419326.0000  -12.723862327  -76.627236168   203.6919   1   9   0.0065   0.0057   0.0164  -0.0013  -0.0064   0.0035   0.00    7.8
2087 419326.2000  -12.723854760  -76.627229160   203.4603   1   9   0.0064   0.0058   0.0164  -0.0011  -0.0064   0.0035   0.20    7.9
2087 419326.4000  -12.723847194  -76.627222187   203.2327   1   9   0.0065   0.0059   0.0164  -0.0014  -0.0063   0.0034   0.40    8.0
2087 419326.6000  -12.723839592  -76.627215194   202.9948   1   9   0.0064   0.0059   0.0165  -0.0009  -0.0064   0.0035   0.60    8.0
2087 419326.8000  -12.723831942  -76.627208160   202.7617   1   9   0.0064   0.0057   0.0166   0.0008  -0.0065   0.0036   0.80    8.2
2087 419327.0000  -12.723824343  -76.627201116   202.5245   1   9   0.0064   0.0058   0.0164  -0.0013  -0.0063   0.0035   0.00    8.2
2087 419327.2000  -12.723816651  -76.627193993   202.2802   1   9   0.0064   0.0058   0.0164  -0.0011  -0.0064   0.0036   0.20    8.2
2087 419327.4000  -12.723808957  -76.627186848   202.0410   1   9   0.0065   0.0058   0.0164  -0.0018  -0.0064   0.0033   0.40    8.4
2087 419327.6000  -12.723801215  -76.627179667   201.7999   1   9   0.0064   0.0057   0.0165  -0.0010  -0.0065   0.0036   0.60    8.4
2087 419327.8000  -12.723793481  -76.627172450   201.5469   1   9   0.0065   0.0059   0.0166  -0.0016  -0.0064   0.0035   0.80    8.4
2087 419328.0000  -12.723785720  -76.627165169   201.2891   1   9   0.0064   0.0055   0.0164  -0.0013  -0.0065   0.0034   0.00    8.4
2087 419328.2000  -12.723777930  -76.627157844   201.0440   1   9   0.0064   0.0059   0.0164  -0.0010  -0.0064   0.0035   0.20    8.4
2087 419328.4000  -12.723770121  -76.627150533   200.7905   1   9   0.0065   0.0056   0.0164  -0.0006  -0.0065   0.0035   0.40    8.5
2087 419328.6000  -12.723762323  -76.627143230   200.5447   1   9   0.0065   0.0057   0.0165  -0.0015  -0.0065   0.0034   0.60    8.6
2087 419328.8000  -12.723754541  -76.627135898   200.2918   1   9   0.0065   0.0058   0.0166  -0.0011  -0.0066   0.0035   0.80    8.7
2087 419329.0000  -12.723746804  -76.627128616   200.0440   1   9   0.0063   0.0056   0.0164  -0.0003  -0.0064   0.0036   0.00    8.7
2087 419329.2000  -12.723739003  -76.627121283   199.7995   1   9   0.0064   0.0056   0.0164   0.0010  -0.0064   0.0036   0.20    8.6
2087 419329.4000  -12.723731211  -76.627113989   199.5581   1   9   0.0064   0.0057   0.0164   0.0009  -0.0064   0.0036   0.40    8.6
2087 419329.6000  -12.723723446  -76.627106667   199.3107   1   9   0.0065   0.0057   0.0165  -0.0015  -0.0065   0.0034   0.60    8.6
2087 419329.8000  -12.723715636  -76.627099355   199.0704   1   9   0.0064   0.0057   0.0166  -0.0012  -0.0065   0.0035   0.80    8.6
2087 419330.0000  -12.723707768  -76.627092035   198.8275   1   9   0.0063   0.0055   0.0164  -0.0005  -0.0065   0.0035   0.00    8.6
2087 419330.2000  -12.723699891  -76.627084660   198.5840   1   9   0.0065   0.0056   0.0164  -0.0015  -0.0064   0.0035   0.20    8.7
2087 419330.4000  -12.723692038  -76.627077306   198.3454   1   9   0.0065   0.0057   0.0164  -0.0005  -0.0064   0.0035   0.40    8.8
2087 419330.6000  -12.723684200  -76.627069970   198.1000   1   9   0.0065   0.0057   0.0165  -0.0018  -0.0065   0.0034   0.60    8.8
2087 419330.8000  -12.723676390  -76.627062650   197.8640   1   9   0.0065   0.0056   0.0166  -0.0014  -0.0065   0.0034   0.80    8.9
2087 419331.0000  -12.723668526  -76.627055315   197.6218   1   9   0.0065   0.0058   0.0164  -0.0016  -0.0064   0.0034   0.00    9.0
2087 419331.2000  -12.723660755  -76.627047974   197.3730   1   9   0.0063   0.0056   0.0164   0.0006  -0.0064   0.0036   0.20    9.0
2087 419331.4000  -12.723652920  -76.627040663   197.1368   1   9   0.0064   0.0056   0.0164  -0.0005  -0.0065   0.0036   0.40    9.0
2087 419331.6000  -12.723645080  -76.627033322   196.8994   1   9   0.0064   0.0057   0.0165  -0.0006  -0.0065   0.0034   0.60    9.1
2087 419331.8000  -12.723637273  -76.627025961   196.6565   1   9   0.0066   0.0060   0.0166  -0.0020  -0.0064   0.0034   0.80    9.1
2087 419332.0000  -12.723629468  -76.627018625   196.4147   1   9   0.0064   0.0055   0.0164   0.0012  -0.0064   0.0036   0.00    9.0
2087 419332.2000  -12.723621625  -76.627011273   196.1793   1   9   0.0064   0.0057   0.0164  -0.0012  -0.0064   0.0035   0.20    9.0
2087 419332.4000  -12.723613771  -76.627003936   195.9417   1   9   0.0064   0.0056   0.0164  -0.0008  -0.0065   0.0036   0.40    9.0
2087 419332.6000  -12.723605958  -76.626996630   195.6932   1   9   0.0064   0.0058   0.0165  -0.0003  -0.0065   0.0035   0.60    9.0
2087 419332.8000  -12.723598180  -76.626989327   195.4561   1   9   0.0065   0.0058   0.0166  -0.0008  -0.0065   0.0034   0.80    8.9
2087 419333.0000  -12.723590387  -76.626982019   195.2062   1   9   0.0064   0.0057   0.0164  -0.0010  -0.0064   0.0036   0.00    8.9
2087 419333.2000  -12.723582581  -76.626974711   194.9670   1   9   0.0064   0.0057   0.0164  -0.0009  -0.0065   0.0035   0.20    8.9
2087 419333.4000  -12.723574754  -76.626967382   194.7253   1   9   0.0064   0.0059   0.0165  -0.0007  -0.0063   0.0036   0.40    8.8
2087 419333.6000  -12.723566971  -76.626960048   194.4806   1   9   0.0064   0.0057   0.0165  -0.0016  -0.0064   0.0034   0.60    8.8
2087 419333.8000  -12.723559142  -76.626952670   194.2408   1   9   0.0065   0.0057   0.0166  -0.0013  -0.0065   0.0035   0.80    8.8
2087 419334.0000  -12.723551330  -76.626945333   194.0101   1   9   0.0065   0.0058   0.0164  -0.0010  -0.0063   0.0035   0.00    8.7
2087 419334.2000  -12.723543524  -76.626937957   193.7696   1   9   0.0064   0.0056   0.0164  -0.0008  -0.0064   0.0036   0.20    8.7
2087 419334.4000  -12.723535717  -76.626930620   193.5436   1   9   0.0064   0.0058   0.0164  -0.0011  -0.0064   0.0035   0.40    8.7
2087 419334.6000  -12.723527908  -76.626923243   193.2999   1   9   0.0065   0.0058   0.0165  -0.0012  -0.0064   0.0035   0.60    8.6
2087 419334.8000  -12.723520109  -76.626915914   193.0596   1   9   0.0065   0.0057   0.0166  -0.0006  -0.0065   0.0035   0.80    8.6
2087 419335.0000  -12.723512296  -76.626908573   192.8226   1   9   0.0063   0.0057   0.0164   0.0011  -0.0064   0.0036   0.00    8.7
2087 419335.2000  -12.723504440  -76.626901210   192.5756   1   9   0.0064   0.0056   0.0164  -0.0012  -0.0064   0.0034   0.20    8.7
2087 419335.4000  -12.723496569  -76.626893894   192.3282   1   9   0.0065   0.0058   0.0164   0.0006  -0.0063   0.0036   0.40    8.8
2087 419335.6000  -12.723488702  -76.626886579   192.0784   1   9   0.0064   0.0055   0.0165  -0.0018  -0.0065   0.0035   0.60    8.8
2087 419335.8000  -12.723480890  -76.626879271   191.8284   1   9   0.0065   0.0058   0.0166  -0.0014  -0.0065   0.0034   0.80    8.9
2087 419336.0000  -12.723473078  -76.626872009   191.5869   1   9   0.0065   0.0056   0.0164  -0.0012  -0.0064   0.0035   0.00    8.9
2087 419336.2000  -12.723465293  -76.626864658   191.3399   1   9   0.0065   0.0057   0.0164  -0.0013  -0.0064   0.0034   0.20    8.9
2087 419336.4000  -12.723457477  -76.626857307   191.1029   1   9   0.0064   0.0053   0.0164   0.0009  -0.0066   0.0035   0.40    9.0
2087 419336.6000  -12.723449682  -76.626849937   190.8490   1   9   0.0064   0.0058   0.0165  -0.0014  -0.0065   0.0035   0.60    8.9
2087 419336.8000  -12.723441860  -76.626842545   190.5974   1   9   0.0064   0.0057   0.0166  -0.0003  -0.0065   0.0035   0.80    8.9
2087 419337.0000  -12.723434052  -76.626835148   190.3531   1   9   0.0064   0.0055   0.0164  -0.0006  -0.0065   0.0036   0.00    8.9
2087 419337.2000  -12.723426250  -76.626827769   190.1058   1   9   0.0064   0.0058   0.0164  -0.0014  -0.0064   0.0035   0.20    8.9
2087 419337.4000  -12.723418419  -76.626820405   189.8600   1   9   0.0065   0.0057   0.0164  -0.0009  -0.0064   0.0035   0.40    8.9
2087 419337.6000  -12.723410614  -76.626813051   189.6149   1   9   0.0064   0.0057   0.0165  -0.0017  -0.0065   0.0034   0.60    8.9
2087 419337.8000  -12.723402789  -76.626805688   189.3752   1   9   0.0065   0.0055   0.0166  -0.0004  -0.0065   0.0035   0.80    8.9
2087 419338.0000  -12.723394967  -76.626798353   189.1403   1   9   0.0064   0.0057   0.0164  -0.0015  -0.0065   0.0035   0.00    8.9
2087 419338.2000  -12.723387161  -76.626791022   188.9049   1   9   0.0064   0.0056   0.0164  -0.0014  -0.0064   0.0035   0.20    8.9
2087 419338.4000  -12.723379360  -76.626783706   188.6682   1   9   0.0065   0.0057   0.0164  -0.0014  -0.0064   0.0035   0.40    8.9
2087 419338.6000  -12.723371578  -76.626776426   188.4303   1   9   0.0065   0.0058   0.0165  -0.0012  -0.0064   0.0035   0.60    9.0
2087 419338.8000  -12.723363821  -76.626769143   188.1882   1   9   0.0065   0.0057   0.0166  -0.0010  -0.0065   0.0035   0.80    9.0
2087 419339.0000  -12.723356062  -76.626761871   187.9464   1   9   0.0065   0.0055   0.0164   0.0003  -0.0064   0.0035   0.00    8.9
2087 419339.2000  -12.723348351  -76.626754631   187.7029   1   9   0.0065   0.0056   0.0164  -0.0012  -0.0064   0.0035   0.20    8.9
2087 419339.4000  -12.723340631  -76.626747303   187.4648   1   9   0.0065   0.0057   0.0164  -0.0016  -0.0064   0.0035   0.40    8.9
2087 419339.6000  -12.723332867  -76.626740012   187.2329   1   9   0.0064   0.0056   0.0165  -0.0013  -0.0065   0.0034   0.60    9.0
2087 419339.8000  -12.723325175  -76.626732692   186.9910   1   9   0.0065   0.0059   0.0166  -0.0002  -0.0064   0.0035   0.80    9.0
2087 419340.0000  -12.723317443  -76.626725363   186.7380   1   9   0.0064   0.0056   0.0164   0.0005  -0.0064   0.0036   0.00    9.0
2087 419340.2000  -12.723309729  -76.626718036   186.4940   1   9   0.0064   0.0058   0.0164  -0.0015  -0.0064   0.0035   0.20    9.0
2087 419340.4000  -12.723301957  -76.626710716   186.2612   1   9   0.0064   0.0056   0.0164  -0.0008  -0.0064   0.0035   0.40    9.0
2087 419340.6000  -12.723294168  -76.626703371   186.0203   1   9   0.0065   0.0056   0.0165   0.0008  -0.0065   0.0036   0.60    9.0
2087 419340.8000  -12.723286406  -76.626696038   185.7879   1   9   0.0065   0.0058   0.0166  -0.0010  -0.0064   0.0036   0.80    9.0
2087 419341.0000  -12.723278645  -76.626688679   185.5553   1   9   0.0064   0.0056   0.0164  -0.0008  -0.0064   0.0035   0.00    9.1
2087 419341.2000  -12.723270850  -76.626681287   185.3151   1   9   0.0064   0.0057   0.0164  -0.0005  -0.0063   0.0035   0.20    9.1
2087 419341.4000  -12.723262998  -76.626673897   185.0888   1   9   0.0064   0.0060   0.0164  -0.0005  -0.0063   0.0036   0.40    9.1
2087 419341.6000  -12.723255135  -76.626666503   184.8483   1   9   0.0064   0.0057   0.0165  -0.0009  -0.0065   0.0035   0.60    9.1
2087 419341.8000  -12.723247254  -76.626659093   184.6172   1   9   0.0065   0.0058   0.0166  -0.0017  -0.0064   0.0034   0.80    9.1
2087 419342.0000  -12.723239345  -76.626651678   184.3850   1   9   0.0064   0.0054   0.0163   0.0005  -0.0065   0.0035   0.00    9.1
2087 419342.2000  -12.723231442  -76.626644272   184.1453   1   9   0.0064   0.0057   0.0164  -0.0006  -0.0064   0.0035   0.20    9.1
2087 419342.4000  -12.723223576  -76.626636866   183.9171   1   9   0.0064   0.0058   0.0164  -0.0002  -0.0064   0.0035   0.40    9.1
2087 419342.6000  -12.723215776  -76.626629458   183.6823   1   9   0.0065   0.0059   0.0165  -0.0016  -0.0064   0.0034   0.60    9.2
2087 419342.8000  -12.723207945  -76.626622068   183.4503   1   9   0.0064   0.0058   0.0166  -0.0008  -0.0065   0.0035   0.80    9.2
2087 419343.0000  -12.723200133  -76.626614631   183.2099   1   9   0.0064   0.0058   0.0164  -0.0015  -0.0063   0.0035   0.00    9.2
2087 419343.2000  -12.723192284  -76.626607230   182.9881   1   9   0.0065   0.0055   0.0164  -0.0013  -0.0064   0.0035   0.20    9.2
2087 419343.4000  -12.723184468  -76.626599854   182.7503   1   9   0.0064   0.0057   0.0164   0.0007  -0.0065   0.0036   0.40    9.1
2087 419343.6000  -12.723176661  -76.626592498   182.5287   1   9   0.0064   0.0056   0.0165  -0.0009  -0.0064   0.0035   0.60    9.1
2087 419343.8000  -12.723168868  -76.626585197   182.2956   1   9   0.0064   0.0058   0.0166   0.0005  -0.0064   0.0036   0.80    9.1
2087 419344.0000  -12.723161128  -76.626577928   182.0584   1   9   0.0065   0.0057   0.0164  -0.0008  -0.0063   0.0036   0.00    9.1
2087 419344.2000  -12.723153314  -76.626570623   181.8319   1   9   0.0065   0.0057   0.0164  -0.0009  -0.0064   0.0035   0.20    9.1
2087 419344.4000  -12.723145464  -76.626563313   181.5929   1   9   0.0064   0.0057   0.0164  -0.0007  -0.0064   0.0035   0.40    9.1
2087 419344.6000  -12.723137626  -76.626555936   181.3507   1   9   0.0065   0.0059   0.0165  -0.0016  -0.0063   0.0035   0.60    9.1
2087 419344.8000  -12.723129757  -76.626548539   181.1085   1   9   0.0064   0.0058   0.0166   0.0007  -0.0065   0.0035   0.80    9.0
2087 419345.0000  -12.723121887  -76.626541151   180.8781   1   9   0.0065   0.0057   0.0163  -0.0012  -0.0064   0.0034   0.00    9.0
2087 419345.2000  -12.723114050  -76.626533739   180.6494   1   9   0.0063   0.0056   0.0164  -0.0009  -0.0065   0.0034   0.20    9.0
2087 419345.4000  -12.723106284  -76.626526374   180.4297   1   9   0.0065   0.0058   0.0164   0.0002  -0.0064   0.0035   0.40    9.0
2087 419345.6000  -12.723098549  -76.626518982   180.2048   1   9   0.0064   0.0055   0.0165   0.0009  -0.0064   0.0036   0.60    9.0
2087 419345.8000  -12.723090779  -76.626511581   179.9773   1   9   0.0064   0.0057   0.0165   0.0002  -0.0065   0.0035   0.80    9.0
2087 419346.0000  -12.723082988  -76.626504199   179.7511   1   9   0.0064   0.0055   0.0163  -0.0015  -0.0065   0.0035   0.00    8.9
2087 419346.2000  -12.723075155  -76.626496783   179.5195   1   9   0.0064   0.0057   0.0164  -0.0012  -0.0063   0.0035   0.20    8.9
2087 419346.4000  -12.723067323  -76.626489392   179.3004   1   9   0.0063   0.0056   0.0164  -0.0011  -0.0064   0.0035   0.40    8.9
2087 419346.6000  -12.723059498  -76.626482004   179.0775   1   9   0.0065   0.0059   0.0165  -0.0017  -0.0064   0.0034   0.60    8.9
2087 419346.8000  -12.723051711  -76.626474630   178.8618   1   9   0.0064   0.0057   0.0165  -0.0015  -0.0065   0.0034   0.80    8.9
2087 419347.0000  -12.723043927  -76.626467284   178.6390   1   9   0.0064   0.0058   0.0164  -0.0000  -0.0063   0.0036   0.00    8.9
2087 419347.2000  -12.723036135  -76.626459976   178.4170   1   9   0.0064   0.0057   0.0164   0.0009  -0.0065   0.0035   0.20    8.9
2087 419347.4000  -12.723028354  -76.626452675   178.1894   1   9   0.0064   0.0057   0.0164  -0.0010  -0.0064   0.0035   0.40    8.9
2087 419347.6000  -12.723020552  -76.626445420   177.9613   1   9   0.0066   0.0059   0.0165  -0.0006  -0.0064   0.0035   0.60    8.9
2087 419347.8000  -12.723012781  -76.626438147   177.7349   1   9   0.0065   0.0058   0.0165  -0.0014  -0.0065   0.0034   0.80    8.9
2087 419348.0000  -12.723005009  -76.626430869   177.5105   1   9   0.0064   0.0056   0.0163  -0.0007  -0.0064   0.0035   0.00    8.9
2087 419348.2000  -12.722997180  -76.626423563   177.2754   1   9   0.0064   0.0057   0.0164  -0.0014  -0.0063   0.0035   0.20    8.9
2087 419348.4000  -12.722989317  -76.626416232   177.0516   1   9   0.0065   0.0058   0.0164  -0.0012  -0.0064   0.0035   0.40    8.9
2087 419348.6000  -12.722981500  -76.626408827   176.8371   1   9   0.0065   0.0057   0.0165  -0.0009  -0.0065   0.0035   0.60    8.8
2087 419348.8000  -12.722973660  -76.626401280   176.6147   1   9   0.0065   0.0058   0.0166  -0.0007  -0.0064   0.0035   0.80    8.8
2087 419349.0000  -12.722965856  -76.626393746   176.3955   1   9   0.0065   0.0058   0.0164  -0.0014  -0.0063   0.0035   0.00    8.8
2087 419349.2000  -12.722958080  -76.626386218   176.1655   1   9   0.0065   0.0058   0.0164  -0.0010  -0.0063   0.0035   0.20    8.8
2087 419349.4000  -12.722950278  -76.626378695   175.9524   1   9   0.0065   0.0060   0.0164  -0.0014  -0.0062   0.0034   0.40    8.8
2087 419349.6000  -12.722942458  -76.626371223   175.7501   1   9   0.0065   0.0057   0.0165  -0.0011  -0.0064   0.0034   0.60    8.8
2087 419349.8000  -12.722934658  -76.626363816   175.5440   1   9   0.0065   0.0057   0.0165  -0.0015  -0.0065   0.0034   0.80    8.8
2087 419350.0000  -12.722926856  -76.626356414   175.3526   1   9   0.0064   0.0057   0.0164   0.0007  -0.0063   0.0035   0.00    8.8
2087 419350.2000  -12.722919019  -76.626349065   175.1475   1   9   0.0065   0.0058   0.0164  -0.0005  -0.0064   0.0036   0.20    8.8
2087 419350.4000  -12.722911195  -76.626341788   174.9153   1   9   0.0065   0.0058   0.0164  -0.0014  -0.0064   0.0034   0.40    8.8
2087 419350.6000  -12.722903266  -76.626334585   174.7150   1   9   0.0064   0.0056   0.0164  -0.0005  -0.0065   0.0035   0.60    8.8
2087 419350.8000  -12.722895386  -76.626327419   174.5093   1   9   0.0065   0.0058   0.0165  -0.0011  -0.0064   0.0034   0.80    8.9
2087 419351.0000  -12.722887471  -76.626320231   174.2734   1   9   0.0065   0.0058   0.0163  -0.0018  -0.0063   0.0035   0.00    8.9
2087 419351.2000  -12.722879544  -76.626313019   174.0481   1   9   0.0064   0.0057   0.0164  -0.0005  -0.0064   0.0036   0.20    8.9
2087 419351.4000  -12.722871584  -76.626305773   173.8270   1   9   0.0065   0.0056   0.0164  -0.0006  -0.0064   0.0034   0.40    8.9
2087 419351.6000  -12.722863692  -76.626298547   173.6010   1   9   0.0065   0.0056   0.0164  -0.0006  -0.0065   0.0035   0.60    8.9
2087 419351.8000  -12.722855813  -76.626291194   173.3631   1   9   0.0065   0.0055   0.0165   0.0007  -0.0065   0.0035   0.80    8.9
2087 419352.0000  -12.722847956  -76.626283845   173.1076   1   9   0.0064   0.0056   0.0163  -0.0007  -0.0064   0.0035   0.00    8.9
2087 419352.2000  -12.722840080  -76.626276510   172.8645   1   9   0.0064   0.0055   0.0163  -0.0004  -0.0064   0.0035   0.20    8.9
2087 419352.4000  -12.722832196  -76.626269185   172.6213   1   9   0.0064   0.0056   0.0164  -0.0011  -0.0064   0.0034   0.40    8.9
2087 419352.6000  -12.722824341  -76.626261842   172.3793   1   9   0.0064   0.0056   0.0164  -0.0004  -0.0065   0.0034   0.60    8.9
2087 419352.8000  -12.722816541  -76.626254481   172.1356   1   9   0.0065   0.0056   0.0165  -0.0015  -0.0066   0.0034   0.80    8.9
2087 419353.0000  -12.722808771  -76.626247094   171.9047   1   9   0.0064   0.0054   0.0163  -0.0015  -0.0065   0.0035   0.00    8.9
2087 419353.2000  -12.722801007  -76.626239677   171.6501   1   9   0.0064   0.0055   0.0163  -0.0012  -0.0065   0.0035   0.20    8.9
2087 419353.4000  -12.722793235  -76.626232282   171.4134   1   9   0.0064   0.0056   0.0164  -0.0007  -0.0065   0.0035   0.40    8.9
2087 419353.6000  -12.722785500  -76.626224919   171.1761   1   9   0.0065   0.0057   0.0164  -0.0011  -0.0064   0.0034   0.60    8.9
2087 419353.8000  -12.722777773  -76.626217545   170.9439   1   9   0.0065   0.0058   0.0165  -0.0007  -0.0065   0.0035   0.80    8.9
2087 419354.2000  -12.722762160  -76.626202729   170.4714   1   9   0.0064   0.0057   0.0164  -0.0013  -0.0063   0.0034   0.20    8.9
2087 419354.4000  -12.722754327  -76.626195291   170.2291   1   9   0.0064   0.0057   0.0164  -0.0011  -0.0064   0.0034   0.40    8.9
2087 419354.6000  -12.722746444  -76.626187861   169.9909   1   9   0.0064   0.0058   0.0165  -0.0008  -0.0064   0.0035   0.60    8.9
2087 419354.8000  -12.722738601  -76.626180407   169.7573   1   9   0.0065   0.0060   0.0166   0.0004  -0.0063   0.0035   0.80    8.9
2087 419355.0000  -12.722730782  -76.626172976   169.5427   1   9   0.0065   0.0056   0.0163  -0.0010  -0.0064   0.0035   0.00    8.9
2087 419355.2000  -12.722722972  -76.626165538   169.3213   1   9   0.0064   0.0057   0.0163  -0.0013  -0.0064   0.0035   0.20    8.9
2087 419355.4000  -12.722715173  -76.626158167   169.0950   1   9   0.0065   0.0057   0.0164  -0.0012  -0.0064   0.0034   0.40    8.8
2087 419355.6000  -12.722707441  -76.626150812   168.8622   1   9   0.0065   0.0057   0.0165  -0.0009  -0.0064   0.0035   0.60    8.9
2087 419355.8000  -12.722699571  -76.626143562   168.6526   1   9   0.0065   0.0057   0.0165  -0.0010  -0.0065   0.0034   0.80    8.9
2087 419356.0000  -12.722691889  -76.626136545   168.4397   1   9   0.0064   0.0055   0.0163  -0.0009  -0.0064   0.0035   0.00    8.8
2087 419356.2000  -12.722684700  -76.626130157   168.2396   1   9   0.0064   0.0056   0.0163  -0.0006  -0.0064   0.0035   0.20    8.8
2087 419356.4000  -12.722678372  -76.626124582   168.0526   1   9   0.0064   0.0059   0.0164  -0.0012  -0.0063   0.0035   0.40    8.8
2087 419356.6000  -12.722673057  -76.626119917   167.8933   1   9   0.0064   0.0056   0.0164   0.0007  -0.0064   0.0035   0.60    8.8
2087 419356.8000  -12.722668774  -76.626116127   167.7590   1   9   0.0065   0.0057   0.0165  -0.0011  -0.0064   0.0035   0.80    8.8
2087 419357.0000  -12.722665550  -76.626113267   167.6466   1   9   0.0063   0.0056   0.0163   0.0008  -0.0064   0.0037   0.00    8.8
2087 419357.2000  -12.722663033  -76.626110907   167.5769   1   9   0.0064   0.0058   0.0163  -0.0011  -0.0063   0.0034   0.20    8.8
2087 419357.4000  -12.722660426  -76.626108452   167.5516   1   9   0.0066   0.0057   0.0164  -0.0018  -0.0065   0.0034   0.40    8.8
2087 419357.6000  -12.722657111  -76.626105332   167.5373   1   9   0.0064   0.0058   0.0164  -0.0014  -0.0064   0.0034   0.60    8.8
2087 419357.8000  -12.722652760  -76.626101440   167.5129   1   9   0.0065   0.0056   0.0165  -0.0013  -0.0065   0.0034   0.80    8.9
2087 419358.0000  -12.722647330  -76.626096692   167.4834   1   9   0.0065   0.0058   0.0163  -0.0019  -0.0064   0.0034   0.00    8.9
2087 419358.2000  -12.722640872  -76.626091099   167.4664   1   9   0.0064   0.0057   0.0164  -0.0009  -0.0063   0.0035   0.20    8.9
2087 419358.4000  -12.722633453  -76.626084668   167.4675   1   9   0.0065   0.0058   0.0164  -0.0014  -0.0063   0.0034   0.40    8.9
2087 419358.6000  -12.722625219  -76.626077427   167.4451   1   9   0.0064   0.0056   0.0164  -0.0008  -0.0065   0.0035   0.60    9.0
2087 419358.8000  -12.722616655  -76.626069631   167.4311   1   9   0.0065   0.0059   0.0165  -0.0018  -0.0064   0.0034   0.80    9.0
2087 419359.0000  -12.722607959  -76.626061564   167.4146   1   9   0.0064   0.0056   0.0163  -0.0014  -0.0064   0.0035   0.00    9.0
2087 419359.2000  -12.722599344  -76.626053396   167.4053   1   9   0.0065   0.0057   0.0163  -0.0018  -0.0064   0.0034   0.20    9.0
2087 419359.4000  -12.722590796  -76.626045224   167.4026   1   9   0.0065   0.0058   0.0164  -0.0006  -0.0063   0.0036   0.40    9.0
2087 419359.6000  -12.722582428  -76.626037095   167.3833   1   9   0.0064   0.0057   0.0164  -0.0008  -0.0064   0.0035   0.60    9.0
2087 419359.8000  -12.722574187  -76.626029103   167.3623   1   9   0.0065   0.0057   0.0165   0.0000  -0.0065   0.0035   0.80    9.0
2087 419360.0000  -12.722566141  -76.626021215   167.3601   1   9   0.0065   0.0058   0.0163  -0.0010  -0.0063   0.0035   0.00    9.0
2087 419360.2000  -12.722558266  -76.626013450   167.3533   1   9   0.0065   0.0057   0.0163  -0.0015  -0.0064   0.0034   0.20    9.0
2087 419360.4000  -12.722550455  -76.626005803   167.3584   1   9   0.0065   0.0058   0.0164  -0.0007  -0.0063   0.0034   0.40    9.0
2087 419360.6000  -12.722542699  -76.625998251   167.3696   1   9   0.0065   0.0057   0.0164  -0.0010  -0.0064   0.0036   0.60    9.0
2087 419360.8000  -12.722534935  -76.625990713   167.3710   1   9   0.0066   0.0059   0.0165  -0.0014  -0.0064   0.0034   0.80    8.9
2087 419361.0000  -12.722527170  -76.625983231   167.3805   1   9   0.0065   0.0057   0.0163  -0.0010  -0.0064   0.0035   0.00    9.0
2087 419361.2000  -12.722519390  -76.625975759   167.3890   1   9   0.0064   0.0055   0.0163   0.0005  -0.0064   0.0035   0.20    9.0
2087 419361.4000  -12.722511566  -76.625968321   167.3944   1   9   0.0064   0.0057   0.0164  -0.0007  -0.0064   0.0035   0.40    9.0
2087 419361.6000  -12.722503739  -76.625960896   167.4067   1   9   0.0065   0.0057   0.0164  -0.0009  -0.0064   0.0035   0.60    9.0
2087 419361.8000  -12.722495814  -76.625953495   167.4135   1   9   0.0065   0.0059   0.0165  -0.0013  -0.0064   0.0034   0.80    8.9
2087 419362.0000  -12.722487831  -76.625946100   167.4151   1   9   0.0065   0.0057   0.0163  -0.0013  -0.0063   0.0035   0.00    8.9
2087 419362.2000  -12.722479892  -76.625938708   167.4148   1   9   0.0064   0.0057   0.0163  -0.0011  -0.0064   0.0034   0.20    8.9
2087 419362.4000  -12.722471947  -76.625931298   167.4042   1   9   0.0066   0.0058   0.0164  -0.0002  -0.0064   0.0034   0.40    8.9
2087 419362.6000  -12.722464020  -76.625923834   167.3943   1   9   0.0065   0.0058   0.0164  -0.0012  -0.0064   0.0035   0.60    9.0
2087 419362.8000  -12.722456104  -76.625916343   167.3857   1   9   0.0065   0.0054   0.0165  -0.0009  -0.0066   0.0034   0.80    9.0
2087 419363.0000  -12.722448204  -76.625908869   167.3717   1   9   0.0065   0.0058   0.0163  -0.0014  -0.0063   0.0034   0.00    8.9
2087 419363.2000  -12.722440336  -76.625901357   167.3638   1   9   0.0065   0.0058   0.0163  -0.0002  -0.0063   0.0035   0.20    8.9
2087 419363.4000  -12.722432502  -76.625893847   167.3583   1   9   0.0064   0.0056   0.0164   0.0007  -0.0064   0.0036   0.40    8.9
2087 419363.6000  -12.722424620  -76.625886380   167.3621   1   9   0.0064   0.0056   0.0164  -0.0013  -0.0066   0.0035   0.60    8.9
2087 419363.8000  -12.722416728  -76.625878865   167.3616   1   9   0.0065   0.0059   0.0165  -0.0009  -0.0064   0.0035   0.80    9.0
2087 419364.0000  -12.722408895  -76.625871400   167.3592   1   9   0.0065   0.0058   0.0163  -0.0010  -0.0064   0.0035   0.00    9.0
2087 419364.2000  -12.722401042  -76.625863922   167.3578   1   9   0.0065   0.0058   0.0163  -0.0012  -0.0063   0.0035   0.20    9.0
2087 419364.4000  -12.722393176  -76.625856456   167.3585   1   9   0.0065   0.0057   0.0164   0.0008  -0.0063   0.0035   0.40    9.0
2087 419364.6000  -12.722385287  -76.625848933   167.3594   1   9   0.0065   0.0055   0.0164  -0.0010  -0.0064   0.0035   0.60    9.0
2087 419364.8000  -12.722377365  -76.625841459   167.3732   1   9   0.0066   0.0057   0.0165  -0.0011  -0.0065   0.0034   0.80    9.0
2087 419365.0000  -12.722369371  -76.625833957   167.3911   1   9   0.0064   0.0056   0.0163  -0.0010  -0.0064   0.0035   0.00    9.0
2087 419365.2000  -12.722361373  -76.625826449   167.4121   1   9   0.0063   0.0054   0.0163  -0.0011  -0.0065   0.0035   0.20    9.0
2087 419365.4000  -12.722353385  -76.625818942   167.4285   1   9   0.0065   0.0058   0.0164  -0.0015  -0.0063   0.0033   0.40    9.0
2087 419365.6000  -12.722345478  -76.625811481   167.4532   1   9   0.0065   0.0057   0.0164  -0.0009  -0.0064   0.0034   0.60    9.0
2087 419365.8000  -12.722337495  -76.625804018   167.4693   1   9   0.0064   0.0056   0.0165  -0.0013  -0.0065   0.0035   0.80    9.0
2087 419366.0000  -12.722329428  -76.625796555   167.4992   1   9   0.0065   0.0057   0.0163  -0.0010  -0.0064   0.0035   0.00    9.0
2087 419366.2000  -12.722321340  -76.625789050   167.5249   1   9   0.0064   0.0057   0.0163  -0.0014  -0.0063   0.0034   0.20    9.0
2087 419366.4000  -12.722313236  -76.625781541   167.5515   1   9   0.0063   0.0056   0.0163   0.0005  -0.0065   0.0036   0.40    9.0
2087 419366.6000  -12.722305112  -76.625774091   167.5762   1   9   0.0065   0.0057   0.0164  -0.0010  -0.0065   0.0034   0.60    9.0
2087 419366.8000  -12.722297005  -76.625766612   167.6038   1   9   0.0065   0.0058   0.0165  -0.0017  -0.0065   0.0033   0.80    9.0
2087 419367.0000  -12.722288888  -76.625759168   167.6310   1   9   0.0064   0.0056   0.0163   0.0002  -0.0065   0.0035   0.00    9.1
2087 419367.2000  -12.722280829  -76.625751731   167.6493   1   9   0.0065   0.0056   0.0163  -0.0014  -0.0064   0.0034   0.20    9.1
2087 419367.4000  -12.722272765  -76.625744287   167.6675   1   9   0.0065   0.0057   0.0164  -0.0004  -0.0064   0.0034   0.40    9.1
2087 419367.6000  -12.722264696  -76.625736807   167.6855   1   9   0.0064   0.0055   0.0164  -0.0010  -0.0065   0.0035   0.60    9.1
2087 419367.8000  -12.722256635  -76.625729319   167.6914   1   9   0.0065   0.0057   0.0165  -0.0012  -0.0064   0.0034   0.80    9.1
2087 419368.0000  -12.722248589  -76.625721818   167.7038   1   9   0.0064   0.0055   0.0163  -0.0010  -0.0064   0.0035   0.00    9.1
2087 419368.2000  -12.722240597  -76.625714318   167.7231   1   9   0.0064   0.0057   0.0163  -0.0002  -0.0064   0.0035   0.20    9.1
2087 419368.4000  -12.722232707  -76.625706817   167.7349   1   9   0.0064   0.0055   0.0163  -0.0006  -0.0064   0.0034   0.40    9.1
2087 419368.6000  -12.722224797  -76.625699306   167.7444   1   9   0.0065   0.0058   0.0164  -0.0012  -0.0064   0.0034   0.60    9.1
2087 419368.8000  -12.722216907  -76.625691794   167.7594   1   9   0.0065   0.0053   0.0165   0.0004  -0.0065   0.0036   0.80    9.1
2087 419369.0000  -12.722208903  -76.625684212   167.7790   1   9   0.0065   0.0057   0.0163  -0.0017  -0.0063   0.0034   0.00    9.1
2087 419369.2000  -12.722200953  -76.625676672   167.7910   1   9   0.0065   0.0057   0.0163  -0.0012  -0.0064   0.0034   0.20    9.1
2087 419369.4000  -12.722193011  -76.625669201   167.8170   1   9   0.0065   0.0057   0.0163  -0.0012  -0.0064   0.0034   0.40    9.1
2087 419369.6000  -12.722185056  -76.625661695   167.8371   1   9   0.0064   0.0057   0.0164  -0.0012  -0.0064   0.0034   0.60    9.1
2087 419369.8000  -12.722177073  -76.625654167   167.8540   1   9   0.0065   0.0057   0.0165  -0.0007  -0.0065   0.0035   0.80    9.2
2087 419370.0000  -12.722169053  -76.625646633   167.8709   1   9   0.0064   0.0053   0.0163  -0.0012  -0.0065   0.0034   0.00    9.2
2087 419370.2000  -12.722161075  -76.625639110   167.8951   1   9   0.0064   0.0057   0.0163  -0.0011  -0.0063   0.0035   0.20    9.2
2087 419370.4000  -12.722153127  -76.625631602   167.9141   1   9   0.0064   0.0055   0.0163  -0.0005  -0.0065   0.0035   0.40    9.2
2087 419370.6000  -12.722145229  -76.625624128   167.9300   1   9   0.0065   0.0057   0.0164  -0.0008  -0.0064   0.0034   0.60    9.2
2087 419370.8000  -12.722137233  -76.625616656   167.9495   1   9   0.0064   0.0059   0.0165  -0.0005  -0.0064   0.0034   0.80    9.2
2087 419371.0000  -12.722129252  -76.625609206   167.9672   1   9   0.0064   0.0057   0.0163  -0.0010  -0.0064   0.0035   0.00    9.2
2087 419371.2000  -12.722121244  -76.625601700   167.9813   1   9   0.0065   0.0058   0.0163  -0.0008  -0.0063   0.0035   0.20    9.2
2087 419371.4000  -12.722113314  -76.625594192   167.9985   1   9   0.0065   0.0058   0.0164  -0.0009  -0.0063   0.0034   0.40    9.2
2087 419371.6000  -12.722105398  -76.625586595   168.0173   1   9   0.0065   0.0057   0.0164  -0.0014  -0.0064   0.0034   0.60    9.2
2087 419371.8000  -12.722097449  -76.625578966   168.0380   1   9   0.0065   0.0058   0.0165  -0.0010  -0.0064   0.0035   0.80    9.2
2087 419372.2000  -12.722081456  -76.625563685   168.1111   1   9   0.0064   0.0056   0.0163  -0.0010  -0.0063   0.0034   0.20    9.3
2087 419372.4000  -12.722073409  -76.625556058   168.1431   1   9   0.0065   0.0058   0.0164  -0.0009  -0.0063   0.0034   0.40    9.3
2087 419372.6000  -12.722065437  -76.625548473   168.1799   1   9   0.0065   0.0056   0.0164  -0.0013  -0.0064   0.0034   0.60    9.3
2087 419372.8000  -12.722057404  -76.625540930   168.2127   1   9   0.0066   0.0055   0.0165  -0.0011  -0.0065   0.0034   0.80    9.3
2087 419373.0000  -12.722049444  -76.625533408   168.2459   1   9   0.0064   0.0058   0.0163  -0.0011  -0.0064   0.0034   0.00    9.3
2087 419373.2000  -12.722041446  -76.625525899   168.2813   1   9   0.0064   0.0057   0.0163  -0.0012  -0.0064   0.0034   0.20    9.3
2087 419373.4000  -12.722033499  -76.625518419   168.3147   1   9   0.0064   0.0056   0.0163  -0.0007  -0.0064   0.0034   0.40    9.3
2087 419373.6000  -12.722025521  -76.625510947   168.3412   1   9   0.0065   0.0058   0.0164  -0.0012  -0.0064   0.0034   0.60    9.3
2087 419373.8000  -12.722017567  -76.625503495   168.3619   1   9   0.0064   0.0057   0.0165   0.0007  -0.0065   0.0034   0.80    9.3
2087 419374.0000  -12.722009527  -76.625496020   168.3875   1   9   0.0065   0.0058   0.0163  -0.0014  -0.0063   0.0034   0.00    9.3
2087 419374.2000  -12.722001773  -76.625488689   168.4131   1   9   0.0064   0.0058   0.0163  -0.0008  -0.0063   0.0035   0.20    9.3
2087 419374.4000  -12.721994533  -76.625481894   168.4455   1   9   0.0065   0.0058   0.0163  -0.0018  -0.0064   0.0034   0.40    9.3
2087 419374.6000  -12.721988109  -76.625475899   168.4666   1   9   0.0065   0.0060   0.0164  -0.0015  -0.0064   0.0034   0.60    9.3
2087 419374.8000  -12.721982652  -76.625470836   168.4887   1   9   0.0064   0.0057   0.0165  -0.0002  -0.0065   0.0035   0.80    9.3
2087 419375.0000  -12.721978146  -76.625466636   168.5051   1   9   0.0064   0.0056   0.0163   0.0001  -0.0063   0.0036   0.00    9.3
2087 419375.2000  -12.721974572  -76.625463335   168.5185   1   9   0.0064   0.0054   0.0163  -0.0013  -0.0064   0.0034   0.20    9.3
2087 419375.4000  -12.721971909  -76.625460852   168.5340   1   9   0.0065   0.0057   0.0164  -0.0016  -0.0063   0.0035   0.40    9.3
2087 419375.6000  -12.721970137  -76.625459144   168.5396   1   9   0.0064   0.0056   0.0164  -0.0004  -0.0065   0.0035   0.60    9.3
2087 419375.8000  -12.721968980  -76.625457999   168.4965   1   9   0.0064   0.0058   0.0165   0.0004  -0.0064   0.0035   0.80    9.3
2087 419376.0000  -12.721967997  -76.625457021   168.3472   1   9   0.0064   0.0056   0.0163  -0.0014  -0.0064   0.0034   0.00    9.3
2087 419376.2000  -12.721966883  -76.625455895   168.1261   1   9   0.0065   0.0057   0.0163   0.0003  -0.0063   0.0034   0.20    9.3
2087 419376.4000  -12.721965194  -76.625454187   167.8331   1   9   0.0065   0.0055   0.0163  -0.0015  -0.0064   0.0034   0.40    9.4
2087 419376.6000  -12.721962648  -76.625451757   167.4662   1   9   0.0065   0.0056   0.0164  -0.0005  -0.0064   0.0034   0.60    9.4
2087 419376.8000  -12.721959216  -76.625448506   167.0411   1   9   0.0066   0.0058   0.0165  -0.0019  -0.0065   0.0033   0.80    9.4
2087 419377.0000  -12.721954827  -76.625444451   166.5532   1   9   0.0064   0.0056   0.0163  -0.0012  -0.0064   0.0035   0.00    9.5
2087 419377.2000  -12.721949653  -76.625439721   166.0212   1   9   0.0064   0.0059   0.0163  -0.0013  -0.0063   0.0034   0.20    9.5
2087 419377.4000  -12.721943772  -76.625434324   165.4500   1   9   0.0065   0.0058   0.0164  -0.0012  -0.0063   0.0034   0.40    9.5
2087 419377.6000  -12.721937363  -76.625428305   164.8181   1   9   0.0064   0.0056   0.0164   0.0007  -0.0064   0.0036   0.60    9.5
2087 419377.8000  -12.721930518  -76.625421848   164.1854   1   9   0.0066   0.0057   0.0165  -0.0014  -0.0065   0.0034   0.80    9.5
2087 419378.0000  -12.721923559  -76.625415139   163.5310   1   9   0.0064   0.0058   0.0163  -0.0008  -0.0062   0.0035   0.00    9.5
2087 419378.2000  -12.721916670  -76.625408421   162.8653   1   9   0.0063   0.0054   0.0163   0.0011  -0.0064   0.0036   0.20    9.5
2087 419378.4000  -12.721909919  -76.625401738   162.2006   1   9   0.0065   0.0056   0.0163   0.0006  -0.0064   0.0035   0.40    9.5
2087 419378.6000  -12.721903290  -76.625395098   161.5317   1   9   0.0065   0.0059   0.0164  -0.0015  -0.0064   0.0034   0.60    9.5
2087 419378.8000  -12.721896775  -76.625388546   160.8635   1   9   0.0065   0.0056   0.0165  -0.0010  -0.0065   0.0035   0.80    9.5
2087 419379.0000  -12.721890348  -76.625382108   160.1950   1   9   0.0066   0.0059   0.0163  -0.0015  -0.0063   0.0034   0.00    9.5
2087 419379.2000  -12.721883889  -76.625375730   159.5254   1   9   0.0064   0.0056   0.0163   0.0003  -0.0064   0.0035   0.20    9.5
2087 419379.4000  -12.721877518  -76.625369458   158.8606   1   9   0.0064   0.0058   0.0163  -0.0016  -0.0064   0.0033   0.40    9.5
2087 419379.6000  -12.721871125  -76.625363244   158.1948   1   9   0.0065   0.0056   0.0164  -0.0013  -0.0064   0.0035   0.60    9.5
2087 419379.8000  -12.721864721  -76.625357086   157.5275   1   9   0.0065   0.0056   0.0165  -0.0009  -0.0065   0.0035   0.80    9.5
2087 419380.0000  -12.721858205  -76.625350968   156.8618   1   9   0.0065   0.0055   0.0163  -0.0015  -0.0063   0.0035   0.00    9.5
2087 419380.2000  -12.721851887  -76.625345002   156.2113   1   9   0.0063   0.0057   0.0163  -0.0004  -0.0064   0.0034   0.20    9.5
2087 419380.4000  -12.721845878  -76.625339482   155.5971   1   9   0.0064   0.0057   0.0163  -0.0008  -0.0064   0.0034   0.40    9.5
2087 419380.6000  -12.721840463  -76.625334695   155.0343   1   9   0.0066   0.0058   0.0164  -0.0019  -0.0064   0.0033   0.60    9.5
2087 419380.8000  -12.721835875  -76.625330631   154.5481   1   9   0.0065   0.0055   0.0165  -0.0007  -0.0065   0.0035   0.80    9.5
2087 419381.0000  -12.721832221  -76.625327371   154.1586   1   9   0.0065   0.0059   0.0163  -0.0005  -0.0062   0.0035   0.00    9.5
2087 419381.2000  -12.721829440  -76.625324808   153.8271   1   9   0.0063   0.0059   0.0163   0.0012  -0.0063   0.0036   0.20    9.5
2087 419381.4000  -12.721827424  -76.625322972   153.5714   1   9   0.0065   0.0058   0.0163  -0.0010  -0.0064   0.0034   0.40    9.5
2087 419381.6000  -12.721826065  -76.625321888   153.3798   1   9   0.0064   0.0056   0.0164  -0.0005  -0.0065   0.0035   0.60    9.5
2087 419381.8000  -12.721825417  -76.625321436   153.2495   1   9   0.0066   0.0058   0.0165  -0.0015  -0.0064   0.0034   0.80    9.6
2087 419382.0000  -12.721825301  -76.625321828   153.1666   1   9   0.0064   0.0056   0.0163   0.0001  -0.0064   0.0035   0.00    9.6
2087 419382.2000  -12.721825622  -76.625323072   153.1132   1   9   0.0065   0.0058   0.0163  -0.0012  -0.0063   0.0034   0.20    9.6
2087 419382.4000  -12.721826178  -76.625325417   153.0979   1   9   0.0064   0.0056   0.0163  -0.0018  -0.0064   0.0033   0.40    9.6
2087 419382.6000  -12.721826738  -76.625328644   153.0538   1   9   0.0065   0.0059   0.0164  -0.0012  -0.0063   0.0035   0.60    9.6
2087 419382.8000  -12.721827102  -76.625332988   152.9848   1   9   0.0065   0.0056   0.0165  -0.0010  -0.0065   0.0034   0.80    9.6
2087 419383.0000  -12.721827143  -76.625338423   152.8906   1   9   0.0065   0.0056   0.0163  -0.0012  -0.0063   0.0035   0.00    9.6
2087 419383.2000  -12.721827060  -76.625344976   152.8043   1   9   0.0065   0.0057   0.0163  -0.0011  -0.0064   0.0034   0.20    9.6
2087 419383.4000  -12.721826812  -76.625352459   152.6912   1   9   0.0064   0.0054   0.0163  -0.0011  -0.0065   0.0034   0.40    9.6
2087 419383.6000  -12.721826471  -76.625360798   152.5397   1   9   0.0065   0.0057   0.0164  -0.0009  -0.0064   0.0035   0.60    9.6
2087 419383.8000  -12.721825994  -76.625370093   152.3829   1   9   0.0065   0.0057   0.0164  -0.0012  -0.0065   0.0034   0.80    9.7
2087 419384.0000  -12.721825516  -76.625380276   152.1982   1   9   0.0065   0.0056   0.0162  -0.0015  -0.0065   0.0034   0.00    9.6
2087 419384.2000  -12.721825036  -76.625391250   152.0014   1   9   0.0063   0.0056   0.0163   0.0008  -0.0064   0.0035   0.20    9.6
2087 419384.4000  -12.721824677  -76.625402884   151.8122   1   9   0.0064   0.0057   0.0163  -0.0007  -0.0064   0.0035   0.40    9.7
2087 419384.6000  -12.721824480  -76.625414853   151.6201   1   9   0.0065   0.0057   0.0164  -0.0015  -0.0064   0.0033   0.60    9.7
2087 419384.8000  -12.721824505  -76.625426848   151.4395   1   9   0.0066   0.0058   0.0165  -0.0014  -0.0064   0.0034   0.80    9.7
2087 419385.0000  -12.721824648  -76.625438748   151.2472   1   9   0.0066   0.0057   0.0163  -0.0013  -0.0064   0.0035   0.00    9.7
2087 419385.2000  -12.721824874  -76.625450415   151.0869   1   9   0.0064   0.0055   0.0163   0.0006  -0.0064   0.0034   0.20    9.8
2087 419385.4000  -12.721825181  -76.625461834   150.9212   1   9   0.0064   0.0056   0.0163   0.0009  -0.0064   0.0036   0.40    9.8
2087 419385.6000  -12.721825387  -76.625472999   150.7628   1   9   0.0066   0.0056   0.0164  -0.0018  -0.0064   0.0033   0.60    9.8
2087 419385.8000  -12.721825561  -76.625483999   150.6012   1   9   0.0064   0.0055   0.0164   0.0004  -0.0065   0.0034   0.80    9.9
2087 419386.0000  -12.721825616  -76.625494897   150.4451   1   9   0.0065   0.0060   0.0163  -0.0015  -0.0063   0.0035   0.00    9.9
2087 419386.2000  -12.721825656  -76.625505778   150.3070   1   9   0.0065   0.0057   0.0163  -0.0015  -0.0064   0.0033   0.20    9.9
2087 419386.4000  -12.721825592  -76.625516537   150.1638   1   9   0.0065   0.0057   0.0163  -0.0011  -0.0064   0.0034   0.40    9.9
2087 419386.6000  -12.721825457  -76.625527298   150.0087   1   9   0.0064   0.0057   0.0164  -0.0010  -0.0064   0.0034   0.60   10.0
2087 419386.8000  -12.721825287  -76.625538087   149.8576   1   9   0.0066   0.0058   0.0165  -0.0015  -0.0064   0.0034   0.80   10.0
2087 419387.0000  -12.721825075  -76.625548903   149.6759   1   9   0.0064   0.0055   0.0163   0.0013  -0.0064   0.0034   0.00   10.0
2087 419387.2000  -12.721824849  -76.625559791   149.5245   1   9   0.0064   0.0055   0.0163   0.0003  -0.0064   0.0035   0.20   10.1
2087 419387.4000  -12.721824710  -76.625570670   149.3676   1   9   0.0065   0.0058   0.0163  -0.0007  -0.0063   0.0034   0.40   10.1
2087 419387.6000  -12.721824569  -76.625581582   149.2083   1   9   0.0065   0.0056   0.0164  -0.0014  -0.0064   0.0034   0.60   10.1
2087 419387.8000  -12.721824424  -76.625592468   149.0427   1   9   0.0065   0.0057   0.0165  -0.0016  -0.0064   0.0033   0.80   10.2
2087 419388.0000  -12.721824317  -76.625603426   148.8851   1   9   0.0064   0.0057   0.0163   0.0008  -0.0062   0.0035   0.00   10.1
2087 419388.2000  -12.721824286  -76.625614365   148.7241   1   9   0.0065   0.0059   0.0163  -0.0013  -0.0062   0.0034   0.20   10.2
2087 419388.4000  -12.721824254  -76.625625377   148.5637   1   9   0.0064   0.0056   0.0163   0.0003  -0.0064   0.0033   0.40   10.2
2087 419388.6000  -12.721824217  -76.625636392   148.4071   1   9   0.0065   0.0056   0.0164   0.0006  -0.0065   0.0034   0.60   10.2
2087 419388.8000  -12.721824174  -76.625647365   148.2486   1   9   0.0065   0.0055   0.0164  -0.0001  -0.0065   0.0035   0.80   10.2
2087 419389.0000  -12.721824100  -76.625658360   148.0865   1   9   0.0064   0.0055   0.0163  -0.0001  -0.0064   0.0034   0.00   10.2
2087 419389.2000  -12.721823990  -76.625669312   147.9294   1   9   0.0064   0.0059   0.0163  -0.0015  -0.0063   0.0034   0.20   10.3
2087 419389.4000  -12.721823892  -76.625680225   147.7731   1   9   0.0065   0.0056   0.0163  -0.0017  -0.0064   0.0033   0.40   10.3
2087 419389.6000  -12.721823746  -76.625691156   147.6166   1   9   0.0065   0.0059   0.0164  -0.0011  -0.0063   0.0034   0.60   10.3
2087 419389.8000  -12.721823684  -76.625702090   147.4487   1   9   0.0064   0.0054   0.0164   0.0004  -0.0065   0.0034   0.80   10.3
2087 419390.0000  -12.721823534  -76.625713043   147.2832   1   9   0.0064   0.0055   0.0163   0.0004  -0.0064   0.0034   0.00   10.3
2087 419390.2000  -12.721823456  -76.625723992   147.1260   1   9   0.0065   0.0057   0.0163  -0.0018  -0.0063   0.0033   0.20   10.3
2087 419390.4000  -12.721823366  -76.625734946   146.9652   1   9   0.0065   0.0058   0.0163  -0.0010  -0.0063   0.0035   0.40   10.3
2087 419390.6000  -12.721823245  -76.625745874   146.7907   1   9   0.0065   0.0058   0.0164  -0.0012  -0.0064   0.0034   0.60   10.3
2087 419390.8000  -12.721823167  -76.625756824   146.6200   1   9   0.0066   0.0056   0.0164  -0.0013  -0.0065   0.0033   0.80   10.3
2087 419391.0000  -12.721823144  -76.625767756   146.4517   1   9   0.0065   0.0058   0.0163  -0.0011  -0.0063   0.0034   0.00   10.3
2087 419391.2000  -12.721823066  -76.625778670   146.2708   1   9   0.0065   0.0057   0.0163  -0.0012  -0.0064   0.0034   0.20   10.3
2087 419391.4000  -12.721823020  -76.625789619   146.0996   1   9   0.0065   0.0057   0.0163   0.0007  -0.0064   0.0034   0.40   10.3
2087 419391.6000  -12.721823030  -76.625800561   145.9246   1   9   0.0065   0.0059   0.0164  -0.0013  -0.0063   0.0034   0.60   10.4
2087 419391.8000  -12.721823078  -76.625811554   145.7677   1   9   0.0065   0.0057   0.0165  -0.0007  -0.0064   0.0034   0.80   10.4
2087 419392.0000  -12.721823118  -76.625822541   145.6082   1   9   0.0064   0.0055   0.0162  -0.0007  -0.0064   0.0035   0.00   10.4
2087 419392.2000  -12.721823140  -76.625833428   145.4400   1   9   0.0064   0.0055   0.0163  -0.0013  -0.0064   0.0035   0.20   10.4
2087 419392.4000  -12.721823058  -76.625844064   145.2970   1   9   0.0064   0.0057   0.0163   0.0003  -0.0064   0.0035   0.40   10.4
2087 419392.6000  -12.721823039  -76.625853887   145.1688   1   9   0.0065   0.0058   0.0164  -0.0015  -0.0063   0.0035   0.60   10.5
2087 419392.8000  -12.721822982  -76.625862496   145.0512   1   9   0.0065   0.0056   0.0164  -0.0010  -0.0065   0.0034   0.80   10.5
2087 419393.0000  -12.721822935  -76.625869726   144.9479   1   9   0.0065   0.0057   0.0163  -0.0009  -0.0062   0.0035   0.00   10.5
2087 419393.2000  -12.721822865  -76.625875469   144.8558   1   9   0.0064   0.0058   0.0163  -0.0001  -0.0063   0.0035   0.20   10.5
2087 419393.4000  -12.721822650  -76.625879800   144.7855   1   9   0.0064   0.0056   0.0163   0.0011  -0.0064   0.0034   0.40   10.6
2087 419393.6000  -12.721822454  -76.625882796   144.7395   1   9   0.0065   0.0058   0.0164  -0.0014  -0.0064   0.0034   0.60   10.6
2087 419393.8000  -12.721822234  -76.625884598   144.7055   1   9   0.0065   0.0058   0.0164  -0.0013  -0.0064   0.0034   0.80   10.7
2087 419394.0000  -12.721822326  -76.625885581   144.6736   1   9   0.0065   0.0054   0.0162   0.0001  -0.0064   0.0034   0.00   10.7
2087 419394.2000  -12.721822986  -76.625886218   144.6145   1   9   0.0065   0.0058   0.0163  -0.0015  -0.0063   0.0034   0.20   10.7
2087 419394.4000  -12.721824183  -76.625886769   144.5364   1   9   0.0064   0.0057   0.0163  -0.0010  -0.0063   0.0035   0.40   10.7
2087 419394.6000  -12.721825966  -76.625887637   144.4306   1   9   0.0064   0.0057   0.0164   0.0003  -0.0063   0.0034   0.60   10.7
2087 419394.8000  -12.721828228  -76.625889094   144.2869   1   9   0.0065   0.0056   0.0164  -0.0012  -0.0065   0.0033   0.80   10.7
2087 419395.0000  -12.721830910  -76.625891271   144.1323   1   9   0.0064   0.0059   0.0163   0.0001  -0.0063   0.0034   0.00   10.7
2087 419395.2000  -12.721834063  -76.625894181   143.9530   1   9   0.0065   0.0058   0.0163  -0.0008  -0.0062   0.0034   0.20   10.7
2087 419395.4000  -12.721837665  -76.625897782   143.7570   1   9   0.0065   0.0057   0.0163  -0.0014  -0.0063   0.0034   0.40   10.7
2087 419395.6000  -12.721841759  -76.625902165   143.5553   1   9   0.0065   0.0058   0.0164   0.0006  -0.0063   0.0035   0.60   10.7
2087 419395.8000  -12.721846291  -76.625907220   143.3364   1   9   0.0065   0.0055   0.0164   0.0005  -0.0065   0.0034   0.80   10.7
2087 419396.0000  -12.721851292  -76.625912887   143.0928   1   9   0.0064   0.0056   0.0162  -0.0008  -0.0064   0.0034   0.00   10.8
2087 419396.2000  -12.721856756  -76.625919006   142.8488   1   9   0.0064   0.0055   0.0162  -0.0019  -0.0064   0.0033   0.20   10.8
2087 419396.4000  -12.721862776  -76.625925516   142.5967   1   9   0.0064   0.0058   0.0163  -0.0010  -0.0064   0.0033   0.40   10.8
2087 419396.6000  -12.721869379  -76.625932221   142.3604   1   9   0.0065   0.0056   0.0164  -0.0010  -0.0064   0.0035   0.60   10.8
2087 419396.8000  -12.721876451  -76.625939006   142.1172   1   9   0.0065   0.0056   0.0164  -0.0002  -0.0065   0.0034   0.80   10.8
2087 419397.0000  -12.721883863  -76.625945744   141.8794   1   9   0.0065   0.0057   0.0162  -0.0014  -0.0063   0.0034   0.00   10.8
2087 419397.2000  -12.721891444  -76.625952341   141.6565   1   9   0.0065   0.0057   0.0162  -0.0018  -0.0064   0.0033   0.20   10.8
2087 419397.4000  -12.721898895  -76.625958594   141.4426   1   9   0.0065   0.0057   0.0163  -0.0013  -0.0063   0.0035   0.40   10.8
2087 419397.6000  -12.721905842  -76.625964181   141.2596   1   9   0.0065   0.0058   0.0164  -0.0012  -0.0064   0.0033   0.60   10.9
2087 419397.8000  -12.721911921  -76.625968864   141.0964   1   9   0.0064   0.0058   0.0165  -0.0014  -0.0064   0.0034   0.80   10.9
2087 419398.0000  -12.721917008  -76.625972614   140.9561   1   9   0.0065   0.0058   0.0162  -0.0010  -0.0063   0.0035   0.00   10.9
2087 419398.2000  -12.721920888  -76.625975357   140.8436   1   9   0.0064   0.0057   0.0162  -0.0008  -0.0064   0.0034   0.20   10.9
2087 419398.4000  -12.721923543  -76.625977132   140.7579   1   9   0.0064   0.0056   0.0163  -0.0008  -0.0064   0.0034   0.40   10.9
2087 419398.6000  -12.721924977  -76.625978036   140.6964   1   9   0.0065   0.0057   0.0163  -0.0010  -0.0064   0.0035   0.60   10.9
2087 419398.8000  -12.721925449  -76.625978221   140.6808   1   9   0.0064   0.0055   0.0164   0.0006  -0.0064   0.0035   0.80   10.9
2087 419399.0000  -12.721925093  -76.625977853   140.7420   1   9   0.0064   0.0058   0.0163  -0.0016  -0.0062   0.0033   0.00   10.9
2087 419399.2000  -12.721924391  -76.625977381   140.9213   1   9   0.0064   0.0055   0.0162  -0.0017  -0.0064   0.0034   0.20   10.9
2087 419399.4000  -12.721923758  -76.625977079   141.1961   1   9   0.0065   0.0056   0.0163  -0.0009  -0.0064   0.0034   0.40   11.0
2087 419399.6000  -12.721923737  -76.625977273   141.5880   1   9   0.0065   0.0056   0.0163  -0.0014  -0.0064   0.0034   0.60   11.0
2087 419399.8000  -12.721924307  -76.625978060   142.0959   1   9   0.0063   0.0057   0.0164   0.0008  -0.0064   0.0034   0.80   11.0
2087 419400.0000  -12.721925313  -76.625979282   142.7051   1   9   0.0065   0.0058   0.0162  -0.0015  -0.0063   0.0035   0.00   11.0
2087 419400.2000  -12.721926833  -76.625980910   143.4287   1   9   0.0064   0.0057   0.0163   0.0010  -0.0063   0.0035   0.20   11.0
2087 419400.4000  -12.721928728  -76.625982955   144.2681   1   9   0.0065   0.0057   0.0163  -0.0015  -0.0063   0.0034   0.40   11.0
2087 419400.6000  -12.721930994  -76.625985358   145.2048   1   9   0.0064   0.0056   0.0163  -0.0004  -0.0064   0.0035   0.60   11.0
2087 419400.8000  -12.721933410  -76.625988044   146.2027   1   9   0.0066   0.0058   0.0164  -0.0018  -0.0064   0.0033   0.80   11.0
2087 419401.0000  -12.721935921  -76.625990889   147.2229   1   9   0.0065   0.0055   0.0162  -0.0014  -0.0063   0.0033   0.00   11.0
2087 419401.2000  -12.721938386  -76.625993710   148.2509   1   9   0.0064   0.0054   0.0162  -0.0020  -0.0065   0.0033   0.20   11.0
2087 419401.4000  -12.721940757  -76.625996366   149.2805   1   9   0.0064   0.0055   0.0163   0.0006  -0.0064   0.0035   0.40   11.0
2087 419401.6000  -12.721943040  -76.625998913   150.3086   1   9   0.0064   0.0055   0.0163   0.0008  -0.0064   0.0033   0.60   10.9
2087 419401.8000  -12.721945333  -76.626001380   151.3258   1   9   0.0064   0.0056   0.0164   0.0007  -0.0065   0.0034   0.80   10.9
